{"type":"FeatureCollection","features":[{"type":"Feature","geometry":{"type":"Point","coordinates":[-3.189812,55.94409]},"properties":{"location":"cliff.asleep.wedge","rgb-string":"#40ff00","marker-color":"#40ff00","marker-symbol":"lighthouse"}},{"type":"Feature","geometry":{"type":"Point","coordinates":[-3.186729,55.945168]},"properties":{"location":"dragon.bottle.crisp","rgb-string":"#ff0000","marker-color":"#ff0000","marker-symbol":"danger"}},{"type":"Feature","geometry":{"type":"Point","coordinates":[-3.191113,55.943631]},"properties":{"location":"loaf.cheer.slave","rgb-string":"#00ff00","marker-color":"#00ff00","marker-symbol":"lighthouse"}},{"type":"Feature","geometry":{"type":"Point","coordinates":[-3.185621,55.943065]},"properties":{"location":"toned.deflection.bland","rgb-string":"#ff0000","marker-color":"#ff0000","marker-symbol":"danger"}},{"type":"Feature","geometry":{"type":"Point","coordinates":[-3.184754,55.943012]},"properties":{"location":"courier.assume.bill","rgb-string":"#ffc000","marker-color":"#ffc000","marker-symbol":"danger"}},{"type":"Feature","geometry":{"type":"Point","coordinates":[-3.191257,55.945599]},"properties":{"location":"skins.engage.best","rgb-string":"#ff4000","marker-color":"#ff4000","marker-symbol":"danger"}},{"type":"Feature","geometry":{"type":"Point","coordinates":[-3.190053,55.943173]},"properties":{"location":"shows.fries.lamp","rgb-string":"#40ff00","marker-color":"#40ff00","marker-symbol":"lighthouse"}},{"type":"Feature","geometry":{"type":"Point","coordinates":[-3.188463,55.945761]},"properties":{"location":"bend.tubes.chops","rgb-string":"#ff4000","marker-color":"#ff4000","marker-symbol":"danger"}},{"type":"Feature","geometry":{"type":"Point","coordinates":[-3.189186,55.945087]},"properties":{"location":"number.exist.rate","rgb-string":"#ffc000","marker-color":"#ffc000","marker-symbol":"danger"}},{"type":"Feature","geometry":{"type":"Point","coordinates":[-3.187837,55.943227]},"properties":{"location":"gums.clock.modes","rgb-string":"#80ff00","marker-color":"#80ff00","marker-symbol":"lighthouse"}},{"type":"Feature","geometry":{"type":"Point","coordinates":[-3.187355,55.943604]},"properties":{"location":"shut.stands.media","rgb-string":"#80ff00","marker-color":"#80ff00","marker-symbol":"lighthouse"}},{"type":"Feature","geometry":{"type":"Point","coordinates":[-3.186537,55.944925]},"properties":{"location":"laws.merit.bleak","rgb-string":"#ff0000","marker-color":"#ff0000","marker-symbol":"danger"}},{"type":"Feature","geometry":{"type":"Point","coordinates":[-3.18697,55.942688]},"properties":{"location":"strut.river.surely","rgb-string":"#c0ff00","marker-color":"#c0ff00","marker-symbol":"lighthouse"}},{"type":"Feature","geometry":{"type":"Point","coordinates":[-3.185814,55.943551]},"properties":{"location":"record.sofa.sock","rgb-string":"#000000","marker-color":"#000000","marker-symbol":"cross"}},{"type":"Feature","geometry":{"type":"Point","coordinates":[-3.186922,55.945437]},"properties":{"location":"spent.spoon.bolt","rgb-string":"#ff8000","marker-color":"#ff8000","marker-symbol":"danger"}},{"type":"Feature","geometry":{"type":"Point","coordinates":[-3.184947,55.943443]},"properties":{"location":"sentences.sings.modern","rgb-string":"#ffc000","marker-color":"#ffc000","marker-symbol":"danger"}},{"type":"Feature","geometry":{"type":"Point","coordinates":[-3.187018,55.943982]},"properties":{"location":"renew.ears.tend","rgb-string":"#c0ff00","marker-color":"#c0ff00","marker-symbol":"lighthouse"}},{"type":"Feature","geometry":{"type":"Point","coordinates":[-3.192221,55.945114]},"properties":{"location":"useful.hike.trades","rgb-string":"#c0ff00","marker-color":"#c0ff00","marker-symbol":"lighthouse"}},{"type":"Feature","geometry":{"type":"Point","coordinates":[-3.187885,55.944709]},"properties":{"location":"hurt.green.filer","rgb-string":"#c0ff00","marker-color":"#c0ff00","marker-symbol":"lighthouse"}},{"type":"Feature","geometry":{"type":"Point","coordinates":[-3.184513,55.945302]},"properties":{"location":"settle.title.united","rgb-string":"#ffc000","marker-color":"#ffc000","marker-symbol":"danger"}},{"type":"Feature","geometry":{"type":"Point","coordinates":[-3.187645,55.944143]},"properties":{"location":"bound.ends.matter","rgb-string":"#80ff00","marker-color":"#80ff00","marker-symbol":"lighthouse"}},{"type":"Feature","geometry":{"type":"Point","coordinates":[-3.189957,55.94603]},"properties":{"location":"love.behind.orchestra","rgb-string":"#ffc000","marker-color":"#ffc000","marker-symbol":"danger"}},{"type":"Feature","geometry":{"type":"Point","coordinates":[-3.185814,55.94603]},"properties":{"location":"renew.slows.basket","rgb-string":"#ff8000","marker-color":"#ff8000","marker-symbol":"danger"}},{"type":"Feature","geometry":{"type":"Point","coordinates":[-3.186777,55.944575]},"properties":{"location":"artist.gets.react","rgb-string":"#ff0000","marker-color":"#ff0000","marker-symbol":"danger"}},{"type":"Feature","geometry":{"type":"Point","coordinates":[-3.184658,55.943874]},"properties":{"location":"rider.mile.lime","rgb-string":"#ffc000","marker-color":"#ffc000","marker-symbol":"danger"}},{"type":"Feature","geometry":{"type":"Point","coordinates":[-3.189234,55.943012]},"properties":{"location":"region.passes.pencil","rgb-string":"#80ff00","marker-color":"#80ff00","marker-symbol":"lighthouse"}},{"type":"Feature","geometry":{"type":"Point","coordinates":[-3.185621,55.945761]},"properties":{"location":"shed.desire.muddy","rgb-string":"#ff8000","marker-color":"#ff8000","marker-symbol":"danger"}},{"type":"Feature","geometry":{"type":"Point","coordinates":[-3.18933,55.945653]},"properties":{"location":"museum.spicy.horns","rgb-string":"#ffc000","marker-color":"#ffc000","marker-symbol":"danger"}},{"type":"Feature","geometry":{"type":"Point","coordinates":[-3.191016,55.944979]},"properties":{"location":"shapes.sheep.nature","rgb-string":"#ff4000","marker-color":"#ff4000","marker-symbol":"danger"}},{"type":"Feature","geometry":{"type":"Point","coordinates":[-3.188801,55.945437]},"properties":{"location":"shady.soft.phones","rgb-string":"#80ff00","marker-color":"#80ff00","marker-symbol":"lighthouse"}},{"type":"Feature","geometry":{"type":"Point","coordinates":[-3.1875,55.943874]},"properties":{"location":"begins.spider.drips","rgb-string":"#80ff00","marker-color":"#80ff00","marker-symbol":"lighthouse"}},{"type":"Feature","geometry":{"type":"Point","coordinates":[-3.186537,55.944063]},"properties":{"location":"lime.learns.front","rgb-string":"#ff8000","marker-color":"#ff8000","marker-symbol":"danger"}},{"type":"Feature","geometry":{"type":"Point","coordinates":[-3.18986,55.945491]},"properties":{"location":"turkey.limit.ramp","rgb-string":"#ffc000","marker-color":"#ffc000","marker-symbol":"danger"}},{"type":"Feature","geometry":{"type":"LineString","coordinates":[[-3.1878,55.9444],[-3.1875702,55.9442072],[-3.1872883,55.9441046],[-3.1871857,55.9438226],[-3.1869559,55.9440155],[-3.1866559,55.9440155],[-3.1869378,55.9441181],[-3.1868352,55.9444],[-3.1866852,55.9446598],[-3.1865352,55.9449196],[-3.186765,55.9451125],[-3.1870248,55.9452625],[-3.1868748,55.9455223],[-3.1865929,55.9456249],[-3.186311,55.9457275],[-3.1860512,55.9458775],[-3.1857914,55.9460275],[-3.1855615,55.9458346],[-3.1854589,55.9455527],[-3.1854068,55.9452573],[-3.1851068,55.9452573],[-3.1848068,55.9452573],[-3.1845068,55.9452573],[-3.1845589,55.9449618],[-3.184611,55.9446664],[-3.1846631,55.944371],[-3.1843677,55.9443189],[-3.1845605,55.9440891],[-3.1847105,55.9438292],[-3.1849034,55.9435994],[-3.1846214,55.9434968],[-3.184724,55.9432149],[-3.1847761,55.9429195],[-3.1848282,55.9432149],[-3.1851237,55.9431628],[-3.1854191,55.9431107],[-3.1857146,55.9430586],[-3.1859965,55.9431612],[-3.1858465,55.943421],[-3.1861063,55.943271],[-3.1863661,55.943121],[-3.1866259,55.942971],[-3.1868857,55.942821],[-3.1871155,55.9430139],[-3.1873753,55.9431639],[-3.1873232,55.9434593],[-3.187583,55.9436093],[-3.1874804,55.9438912],[-3.1876304,55.9436314],[-3.1877804,55.9433716],[-3.1880759,55.9434237],[-3.1883578,55.9433211],[-3.1886532,55.943269],[-3.1889351,55.9431664],[-3.189217,55.9430638],[-3.189217,55.9433638],[-3.1895125,55.9433117],[-3.1898079,55.9432596],[-3.1901034,55.9432075],[-3.1900008,55.9434894],[-3.1898982,55.9437713],[-3.1897955,55.9440532],[-3.1896027,55.9442831],[-3.1894527,55.9445429],[-3.1893027,55.9448027],[-3.1891527,55.9450625],[-3.1889229,55.9452553],[-3.1887301,55.9454851],[-3.1885002,55.945678],[-3.1888002,55.945678],[-3.1891002,55.945678],[-3.1894002,55.945678],[-3.1896822,55.9455754],[-3.189912,55.9457682],[-3.1902074,55.9458203],[-3.1899776,55.9460131],[-3.190273,55.945961],[-3.1905549,55.9458584],[-3.1908369,55.9457558],[-3.1911188,55.9456532],[-3.1908233,55.9456011],[-3.1909259,55.9453192],[-3.1910285,55.9450373],[-3.1910285,55.9453373],[-3.191324,55.9452852],[-3.1916194,55.9452331],[-3.1919149,55.945181],[-3.1922103,55.9451289],[-3.1919805,55.9449361],[-3.1917507,55.9447432],[-3.1914909,55.9445932],[-3.1912311,55.9444432],[-3.1909356,55.9443912],[-3.1910382,55.9441092],[-3.1910903,55.9438138],[-3.1907949,55.9438659],[-3.1904994,55.943918],[-3.190204,55.9439701],[-3.1899086,55.9440222],[-3.1896131,55.9440743],[-3.1893312,55.9441769],[-3.1890493,55.9442795],[-3.1887674,55.9443821],[-3.1884855,55.9444847],[-3.1882036,55.9445873],[-3.1879217,55.9446899],[-3.1876619,55.9445399]]},"properties":{}},{"type":"Feature","geometry":{"type":"LineString","coordinates":[[-3.192473,55.946233],[-3.184319,55.946233],[-3.184319,55.942617],[-3.192473,55.942617],[-3.192473,55.946233]]},"properties":{}}]}
