{"type":"FeatureCollection","features":[{"type":"Feature","geometry":{"type":"Point","coordinates":[-3.189812,55.94409]},"properties":{"location":"cliff.asleep.wedge","rgb-string":"#40ff00","marker-color":"#40ff00","marker-symbol":"lighthouse"}},{"type":"Feature","geometry":{"type":"Point","coordinates":[-3.186729,55.945168]},"properties":{"location":"dragon.bottle.crisp","rgb-string":"#ff0000","marker-color":"#ff0000","marker-symbol":"danger"}},{"type":"Feature","geometry":{"type":"Point","coordinates":[-3.191113,55.943631]},"properties":{"location":"loaf.cheer.slave","rgb-string":"#00ff00","marker-color":"#00ff00","marker-symbol":"lighthouse"}},{"type":"Feature","geometry":{"type":"Point","coordinates":[-3.185621,55.943065]},"properties":{"location":"toned.deflection.bland","rgb-string":"#ff0000","marker-color":"#ff0000","marker-symbol":"danger"}},{"type":"Feature","geometry":{"type":"Point","coordinates":[-3.184754,55.943012]},"properties":{"location":"courier.assume.bill","rgb-string":"#ffc000","marker-color":"#ffc000","marker-symbol":"danger"}},{"type":"Feature","geometry":{"type":"Point","coordinates":[-3.191257,55.945599]},"properties":{"location":"skins.engage.best","rgb-string":"#ff4000","marker-color":"#ff4000","marker-symbol":"danger"}},{"type":"Feature","geometry":{"type":"Point","coordinates":[-3.190053,55.943173]},"properties":{"location":"shows.fries.lamp","rgb-string":"#40ff00","marker-color":"#40ff00","marker-symbol":"lighthouse"}},{"type":"Feature","geometry":{"type":"Point","coordinates":[-3.188463,55.945761]},"properties":{"location":"bend.tubes.chops","rgb-string":"#ff4000","marker-color":"#ff4000","marker-symbol":"danger"}},{"type":"Feature","geometry":{"type":"Point","coordinates":[-3.189186,55.945087]},"properties":{"location":"number.exist.rate","rgb-string":"#ffc000","marker-color":"#ffc000","marker-symbol":"danger"}},{"type":"Feature","geometry":{"type":"Point","coordinates":[-3.187837,55.943227]},"properties":{"location":"gums.clock.modes","rgb-string":"#80ff00","marker-color":"#80ff00","marker-symbol":"lighthouse"}},{"type":"Feature","geometry":{"type":"Point","coordinates":[-3.187355,55.943604]},"properties":{"location":"shut.stands.media","rgb-string":"#80ff00","marker-color":"#80ff00","marker-symbol":"lighthouse"}},{"type":"Feature","geometry":{"type":"Point","coordinates":[-3.186537,55.944925]},"properties":{"location":"laws.merit.bleak","rgb-string":"#ff0000","marker-color":"#ff0000","marker-symbol":"danger"}},{"type":"Feature","geometry":{"type":"Point","coordinates":[-3.18697,55.942688]},"properties":{"location":"strut.river.surely","rgb-string":"#c0ff00","marker-color":"#c0ff00","marker-symbol":"lighthouse"}},{"type":"Feature","geometry":{"type":"Point","coordinates":[-3.185814,55.943551]},"properties":{"location":"record.sofa.sock","rgb-string":"#000000","marker-color":"#000000","marker-symbol":"cross"}},{"type":"Feature","geometry":{"type":"Point","coordinates":[-3.186922,55.945437]},"properties":{"location":"spent.spoon.bolt","rgb-string":"#ff8000","marker-color":"#ff8000","marker-symbol":"danger"}},{"type":"Feature","geometry":{"type":"Point","coordinates":[-3.184947,55.943443]},"properties":{"location":"sentences.sings.modern","rgb-string":"#ffc000","marker-color":"#ffc000","marker-symbol":"danger"}},{"type":"Feature","geometry":{"type":"Point","coordinates":[-3.187018,55.943982]},"properties":{"location":"renew.ears.tend","rgb-string":"#c0ff00","marker-color":"#c0ff00","marker-symbol":"lighthouse"}},{"type":"Feature","geometry":{"type":"Point","coordinates":[-3.192221,55.945114]},"properties":{"location":"useful.hike.trades","rgb-string":"#c0ff00","marker-color":"#c0ff00","marker-symbol":"lighthouse"}},{"type":"Feature","geometry":{"type":"Point","coordinates":[-3.187885,55.944709]},"properties":{"location":"hurt.green.filer","rgb-string":"#c0ff00","marker-color":"#c0ff00","marker-symbol":"lighthouse"}},{"type":"Feature","geometry":{"type":"Point","coordinates":[-3.184513,55.945302]},"properties":{"location":"settle.title.united","rgb-string":"#ffc000","marker-color":"#ffc000","marker-symbol":"danger"}},{"type":"Feature","geometry":{"type":"Point","coordinates":[-3.187645,55.944143]},"properties":{"location":"bound.ends.matter","rgb-string":"#80ff00","marker-color":"#80ff00","marker-symbol":"lighthouse"}},{"type":"Feature","geometry":{"type":"Point","coordinates":[-3.189957,55.94603]},"properties":{"location":"love.behind.orchestra","rgb-string":"#ffc000","marker-color":"#ffc000","marker-symbol":"danger"}},{"type":"Feature","geometry":{"type":"Point","coordinates":[-3.185814,55.94603]},"properties":{"location":"renew.slows.basket","rgb-string":"#ff8000","marker-color":"#ff8000","marker-symbol":"danger"}},{"type":"Feature","geometry":{"type":"Point","coordinates":[-3.186777,55.944575]},"properties":{"location":"artist.gets.react","rgb-string":"#ff0000","marker-color":"#ff0000","marker-symbol":"danger"}},{"type":"Feature","geometry":{"type":"Point","coordinates":[-3.184658,55.943874]},"properties":{"location":"rider.mile.lime","rgb-string":"#ffc000","marker-color":"#ffc000","marker-symbol":"danger"}},{"type":"Feature","geometry":{"type":"Point","coordinates":[-3.189234,55.943012]},"properties":{"location":"region.passes.pencil","rgb-string":"#80ff00","marker-color":"#80ff00","marker-symbol":"lighthouse"}},{"type":"Feature","geometry":{"type":"Point","coordinates":[-3.185621,55.945761]},"properties":{"location":"shed.desire.muddy","rgb-string":"#ff8000","marker-color":"#ff8000","marker-symbol":"danger"}},{"type":"Feature","geometry":{"type":"Point","coordinates":[-3.18933,55.945653]},"properties":{"location":"museum.spicy.horns","rgb-string":"#ffc000","marker-color":"#ffc000","marker-symbol":"danger"}},{"type":"Feature","geometry":{"type":"Point","coordinates":[-3.191016,55.944979]},"properties":{"location":"shapes.sheep.nature","rgb-string":"#ff4000","marker-color":"#ff4000","marker-symbol":"danger"}},{"type":"Feature","geometry":{"type":"Point","coordinates":[-3.188801,55.945437]},"properties":{"location":"shady.soft.phones","rgb-string":"#80ff00","marker-color":"#80ff00","marker-symbol":"lighthouse"}},{"type":"Feature","geometry":{"type":"Point","coordinates":[-3.1875,55.943874]},"properties":{"location":"begins.spider.drips","rgb-string":"#80ff00","marker-color":"#80ff00","marker-symbol":"lighthouse"}},{"type":"Feature","geometry":{"type":"Point","coordinates":[-3.186537,55.944063]},"properties":{"location":"lime.learns.front","rgb-string":"#ff8000","marker-color":"#ff8000","marker-symbol":"danger"}},{"type":"Feature","geometry":{"type":"Point","coordinates":[-3.18986,55.945491]},"properties":{"location":"turkey.limit.ramp","rgb-string":"#ffc000","marker-color":"#ffc000","marker-symbol":"danger"}},{"type":"Feature","geometry":{"type":"LineString","coordinates":[[-3.1878,55.9444],[-3.18765,55.9441402],[-3.1875474,55.9438583],[-3.1873974,55.9435985],[-3.1871676,55.9437913],[-3.1869078,55.9439413],[-3.1868052,55.9442232],[-3.1865754,55.9440304],[-3.186678,55.9443123],[-3.1867806,55.9445942],[-3.1865208,55.9447442],[-3.1866234,55.9450261],[-3.1867734,55.9452859],[-3.1869662,55.9455157],[-3.187196,55.9453229],[-3.1874258,55.9451301],[-3.1876556,55.9449372],[-3.1878855,55.9447444],[-3.1881153,55.9449372],[-3.1883451,55.9451301],[-3.1885749,55.9453229],[-3.1888347,55.9454729],[-3.1886419,55.9457027],[-3.188694,55.9454073],[-3.1888868,55.9451775],[-3.1889894,55.9448955],[-3.1891822,55.9451254],[-3.1892343,55.9454208],[-3.1893369,55.9457027],[-3.1894869,55.9454429],[-3.1897824,55.945495],[-3.1898345,55.9457904],[-3.1899371,55.9460723],[-3.1900397,55.9457904],[-3.1900918,55.945495],[-3.1902418,55.9452352],[-3.1903444,55.9449533],[-3.1906398,55.9450054],[-3.1906919,55.9447099],[-3.1909217,55.9449028],[-3.1910243,55.9451847],[-3.191127,55.9454666],[-3.1912296,55.9451847],[-3.1912817,55.9448892],[-3.1915636,55.9449918],[-3.1918455,55.9450944],[-3.1921409,55.9451465],[-3.1919909,55.9448867],[-3.1918409,55.9446269],[-3.1916909,55.9443671],[-3.1915409,55.9441073],[-3.1913481,55.9438775],[-3.1911552,55.9436477],[-3.1908954,55.9434977],[-3.1906356,55.9433477],[-3.1903537,55.9432451],[-3.1900718,55.9431425],[-3.1897764,55.9430904],[-3.1894809,55.9430383],[-3.1891855,55.9429862],[-3.1893355,55.943246],[-3.1894381,55.9435279],[-3.1895881,55.9437877],[-3.1897381,55.9440475],[-3.1894783,55.9438975],[-3.1892185,55.9437475],[-3.1889587,55.9435975],[-3.1886768,55.9434949],[-3.1883948,55.9433923],[-3.1881129,55.9432897],[-3.187831,55.9431871],[-3.1875712,55.9430371],[-3.1873114,55.9428871],[-3.1870516,55.9427371],[-3.186949,55.943019],[-3.186799,55.9432788],[-3.1866964,55.9435607],[-3.186401,55.9435086],[-3.1863489,55.9438041],[-3.1860891,55.9436541],[-3.1858292,55.9435041],[-3.1857266,55.9432222],[-3.185624,55.9435041],[-3.1853286,55.943452],[-3.1850331,55.9433999],[-3.1848831,55.9431401],[-3.1845877,55.9431922],[-3.1845877,55.9434922],[-3.1846398,55.9437876],[-3.1843398,55.9437876],[-3.1843398,55.9440876],[-3.1843398,55.9443876],[-3.1843919,55.944683],[-3.184444,55.9449785],[-3.1844961,55.9452739],[-3.1847559,55.9454239],[-3.1850157,55.9455739],[-3.1852976,55.9456765],[-3.1855795,55.9457791],[-3.1857723,55.946009],[-3.1859652,55.9457791],[-3.186158,55.9455493],[-3.1863509,55.9453195],[-3.1865437,55.9450897],[-3.1866937,55.9448299],[-3.1868437,55.9445701],[-3.1868958,55.9442746],[-3.1871912,55.9443267],[-3.1874867,55.9443788],[-3.1877821,55.9444309]]},"properties":{}},{"type":"Feature","geometry":{"type":"LineString","coordinates":[[-3.192473,55.946233],[-3.184319,55.946233],[-3.184319,55.942617],[-3.192473,55.942617],[-3.192473,55.946233]]},"properties":{}}]}
